place_id,name,latitude,longitude
ChIJ7ygHM7MNREARLUhUp8C7qhc,Bermeli Bank,41.6866442,44.8417336
ChIJ9eNnQFIMREARD08aoNw5QeA,Cartu Bank,41.6869368,44.8327755
ChIJHbsVWVoMREARE3uOw0SIrpE,Terabank,41.6835312,44.8225357
ChIJF2ywXFoMREARfpENY7zUDik,Liberty Bank,41.6840334,44.82193590000001
ChIJJ4FOQVEMREARM5vZy1a1-Kw,Liberty Bank,41.687277,44.82694600000001
ChIJt1wGEgANREARjvrnwMeHZeY,TBC bank,41.6769999,44.8446411
ChIJpWPRzkwNREARGPYENtZYAr0,Rico Credit ATM,41.6751762,44.82886370000001
ChIJM8oi8ioMREARkpNka-4jN_E,Liberty Bank,41.6720583,44.8666888
ChIJv5lcbC4NREAR8RMIk02JKmk,საქართველოს ბანკი,41.6775333,44.82489409999999
ChIJi3qnXEQMREARuUuS2zMnPe4,Liberty Bank,41.679474,44.826755
ChIJBy2zL5MNREARXlKHqUQX5ag,საქართველოს ბანკი,41.68484300000001,44.85463499999999
ChIJ497YP4YPREAR0xsbre-nGPA,Rico Credit,41.6849263,44.8545317
ChIJG2uGpJENREARKDtBhgBTo8M,Creditservice+ • კრედიტსერვისი+,41.68532889999999,44.8529822
ChIJi4XOQEcNREARu8r7Gg_LCJ4,Bank of Georgia,41.6857819,44.8525724
ChIJc42p9p8NREARqOFTEMfXzH8,Bank of Georgia,41.686514,44.840881
ChIJi75OzEQMREARCSBhb3yPXQo,TBC Bank,41.681086,44.8238463
ChIJp080Db0NREARzUOW6rK0cy8,Bank of Georgia,41.68577610000001,44.8554205
ChIJ_epxL7MNREARFp7tD0sMJ7Q,საქართველოს ბანკი,41.687191,44.841809
ChIJqx1Ow_oNREARKn000iVYItA,Leader Credit Organization,41.6872018,44.8417762
ChIJqW3ngnQNREARXLCcBPj50cA,პროკრედიტ ბანკი ProCredut Bank,41.6856404,44.83299359999999
ChIJtWIUDnsNREAR4jWtu0GxSrU,Rico Credit ATM,41.6872867,44.84176789999999
ChIJdWtHM00MREARiDV9xsxwIdk,Liberty Bank,41.687427,44.839715
ChIJ6_vQc0gNREAR-MX1nj_4S9c,Terabank,41.68820699999999,44.84124429999999
ChIJcVUnpNENREARZljXcdgnMwc,Basisbank,41.680064,44.869232
ChIJgSEr0T0NREAR316gKKbdPsU,Bank of Georgia,41.687034,44.832689
ChIJ_9hhS1cNREARTk_uzMa60ZM,Credo Bank / კრედო ბანკი,41.6872153,44.832426
ChIJ8feof0AOREAR5UFkchrQEiY,Bank of Georgia,41.6710229,44.91603680000001
ChIJC-0cTvYPREARG4Fv_LzLFq8,Bank of Georgia,41.672995,44.914084
ChIJRdgb-RQOREARSCsTCmuYmdQ,Liberty Bank,41.6751539,44.9129861
ChIJmWAivgMPREARJ5BQgLR5Pns,Liberty Bank,41.644181,44.91141829999999
ChIJixzMGOMOREARWYmF1_2u5hY,Bank of Georgia,41.6464716,44.8984404
ChIJPxqSOOIOREARjFDCOUhlLnM,Liberty Bank,41.644391,44.896978
ChIJ_cqq5ngOREAR8di0ZATBNqI,Bank of Georgia,41.6731531,44.8832663
ChIJ7yH8AnVzREARE__Fqdzhs0A,TBC Bank,41.7232402,44.71935209999999
ChIJ7cMCA5V0REARUHjqOOoZ-no,Liberty Bank,41.696233,44.6991244
ChIJO_raFAxzREARd5p0wt9PejM,Bank of Georgia,41.72435099999999,44.729652
ChIJk2QvFxJzREARBEtmFKAprZo,Liberty Bank,41.7220234,44.7357554
ChIJO3u0ynRzREARHizB5u-YzD0,Bank of Georgia,41.722688,44.717143
ChIJV3SlAgBzREARQmkn_Db5yyM,Rico Credit,41.7231537,44.71751949999999
ChIJq2qgrXNzREARjHormv2iu4g,FastPay,41.7204118,44.72347749999999
ChIJoSYRgKZzREARL8HWDzLgzVk,Express Bank,41.7322516,44.7216189
ChIJcXBvg_BzREAR0HlOZW4PWEg,Bank of Georgia,41.723856,44.73101199999999
ChIJ___TLAlzREAR9PC_soVTYlg,Express Bank,41.7267406,44.7319621
ChIJC73xhQhzREAR9xiTZkxRI-k,Liberty Bank,41.7291451,44.7322461
ChIJCVPCyp0NREARMzhjhFqQNn8,Basisbank,41.7153675,44.8738321
ChIJIcy9Oh0NREARSGVLWgBc7UE,Liberty Bank,41.700938,44.817956
ChIJAQAAAEANREARBvUx1q_9Pkk,"Bank of Georgia, Express Service Center #220",41.7151377,44.827096
ChIJc7uwAbENREARdp8MJ0ZNAAQ,Credo Bank / კრედო ბანკი,41.7048441,44.84989789999999
ChIJWRMzSkoNREARl-KQ_rfl3is,Liberty Bank,41.70806940000001,44.8589197
ChIJffDztwMNREAR7RVXPRbjOJE,ბაზისბანკი | Basisbank,41.7064476,44.858
ChIJJdRtHwkNREARF4VyLvEuNMM,Bank Of Georgia Service Center 214,41.700809,44.8515582
ChIJreHgZdoNREARPVhjxKoJZZs,Bank of Georgia,41.700862,44.85184599999999
ChIJF7eCKaINREAR7keB4sCGl7c,Liberty Bank,41.700531,44.85194499999999
ChIJo7m57uoNREARkCtWriiLCrg,Rico Credit ATM,41.69988049999999,44.8525038
ChIJx-Fic-4TREARDQQ3oQ9CIEc,ბაზისბანკი | Basisbank,41.7153729,44.8738433
ChIJ8WrR8OIBREAR0x6VZNiuLdg,Bank of Georgia,41.709534,44.8969234
ChIJIfTXqX5yREARjdjtqwKrpCg,Liberty Bank,41.7577392,44.7733208
ChIJJcO_YXlyREARMXv3qMD9A1U,TBC Bank,41.7588148,44.7713256
ChIJHTlgP4NtREAR0oArhKz5fEA,Liberty Bank,41.76357900000001,44.7886028
ChIJl159j5JtREARacMsXRGCtUo,Bank Republic,41.7724683,44.7761842
ChIJrQD78YhtREAR_gRCNCLp-as,მაიფინ კრედიტი,41.7656831,44.7743226
ChIJORsdAwLIREARXWiD5lZSLm8,TBC Bank,41.7891089,44.76544889999999
ChIJMZG7H3xyREAR2WrW2rhyB-4,ProCredit Bank,41.7573265,44.7741087
ChIJ6fdP-4FyREAR5jajw5p2IJQ,Liberty Bank,41.7557563,44.7879604
ChIJadMV73RuREAR23T2e-mfolY,Liberty Bank,41.7928156,44.75982860000001
ChIJqyUsWY9yREARaFvCHEazpVs,ექსპრეს ბანკი,41.749257,44.7787674
ChIJZ-6ySI9yREAR7xtTbGaSo-M,Rico Credit ATM,41.749116,44.777924
ChIJz8b5RY9yREARyUzqFytiSEM,Bermeli Bank,41.7490552,44.7780687
ChIJo0V5rAhuREARTb4K5PmeGpw,Bank Of Georgia,41.787553,44.746174
ChIJobSQB7BtREAREQcdpD1wxik,Bank of Georgia,41.779701,44.804568
ChIJn4sE2cANREARmCL7taqBj-4,კრისტალი ფინანსური ჩართულობის ორგანიზაცია - Crystal Financial Inclusion Organization,41.747114,44.7786026
ChIJ68iycwBtREARncDDqhPwCZA,LINGS-გიგა,41.77845809999999,44.7668797
ChIJE6eI-X9tREARFfoOKcc6mxE,Bank of Georgia,41.76344599999999,44.77433500000001
ChIJv3q40SNtREARlcqVhR-gGU8,Rico Credit,41.762398,44.7753036
ChIJO1F2veptREAR4IS4MH9yKdE,Georgian Card,41.7639623,44.780433
ChIJpQ_t4GRtREAR3XeYPtXmpdQ,TBC Bank Branch,41.7622642,44.7756718
ChIJv009YHhyREARp9HRNqtGgeQ,Liberty Bank,41.7614051,44.77421440000001
ChIJU7BPutlzREARvi3AeQShC6A,ბაზისბანკი | Basisbank,41.75951999999999,44.77064999999999
ChIJz5LB6gMNREARnmCK3cInr6I,Creditservice+ • კრედიტსერვისი+,41.759248,44.77092589999999
ChIJK-k7TgptREAREvdkR9m0N54,Credo Bank / კრედო ბანკი,41.7664929,44.7900743
ChIJFevErYdtREAR1WcY23v1Kss,საქართველოს ბანკი • Bank Of Georgia,41.7646844,44.7889792
ChIJ3azCGd1tREARra7jzvOMzWo,Euro,41.7866848,44.7731609
ChIJI1ub-XtyREARtwPZKwxxtlE,Bank Of Georgia Express Bank,41.7572871,44.7733135
ChIJiaVteQptREARQfOHqqfgKUE,TBC Bank თიბისი ბანკი,41.7655626,44.7905015
ChIJpXthxn5tREARKs35h7FECxM,Bank of Georgia,41.77433600000001,44.792386
ChIJLWjt-rFtREARYz2UcBt-ypA,Creditservice+ • კრედიტსერვისი+,41.7706324,44.79278479999999
ChIJ78dPvYNtREARIaR70Ik8g10,Bank of Georgia,41.7650902,44.7912055
ChIJh8r6jaVtREAR81sBXJIkbgw,Liberty Bank,41.77774899999999,44.805845
ChIJw0TD_mltREARjZE3xOfzZNU,Rico Credit ATM,41.7873506,44.7576776
ChIJuxOGCMtzREARcjb-7DZ99oI,Bank of Georgia,41.7560615,44.7875783
ChIJPZjQ3GRzREARmjD4WudBxmQ,Bank of Georgia,41.752221,44.76812210000001
ChIJ543gooltREART6EWu27RHz4,Bank of Georgia,41.7827349,44.79660849999999
ChIJUzHFCvhvREARRJeP37UMeCA,Bank of Georgia,41.7923341,44.7637105
ChIJDSO5UjtvREARbAe8kDujgX0,რჩეული კრედო,41.7902991,44.75559929999999
ChIJLYoZPwVvREAR53HrA8uencA,Credo Bank / კრედო ბანკი,41.7903618,44.7553284
ChIJHRYs0_NtREARV9houfgYO90,Liberty Bank,41.7626144,44.7995968
ChIJA_8cV0ttREARRjpuy8jqVm0,Rico Credit,41.7834946,44.79943
ChIJrxGmjodzREARvFmHtb3i9GQ,Bank of Georgia,41.749603,44.77945299999999
ChIJQQVmtlJvREARdSXs9_D6oFw,Rico Credit,41.7927226,44.75778409999999
ChIJgx4TUkZzREARP4PEt4OrKAY,Jaba Credit ჯაბა კრედიტი,41.74829779999999,44.77944019999999
ChIJdaH8PANzREARdsEdN9_I9Bw,Bank of Georgia,41.750219,44.787688
ChIJxZ8uI4BzREAReJgqfQKYnIA,Rico Credit ATM,41.7500993,44.7908834
ChIJ0XxuwhhtREAR9nB3N_nbOVU,Credo Bank / კრედო ბანკი,41.7772255,44.8071621
ChIJqa21nbZtREARy3zpEHthyWQ,Liberty Bank,41.785742,44.803228
ChIJr1ZIqFZsREARlwuxrAZXM04,Bank of Georgia,41.784701,44.827427
ChIJPUxJc1RsREARAE0Ev4e_IDY,Liberty Bank,41.7841286,44.82548569999999
ChIJw2fLC6ttREARF1Y1rMb-bxM,Liberty Bank,41.780225,44.820566
ChIJZziK4W9vREARwZnxzxxgIrE,Liberty Bank,41.84496499999999,44.720813
ChIJ6bGk9-NuREARET7eBLAf7Gc,Liberty Bank Pay Express City,41.8275447,44.7607335
ChIJbWj0RZ5uREAR-CPWXdR3ycw,Liberty Bank,41.8175275,44.79655990000001
ChIJRQlJ1bVvREARLM8bNymwScg,Bank of Georgia,41.82499199999999,44.743307
ChIJgat2mnFvREARE9-t7yEo5g8,Terabank,41.8284775,44.8032487
ChIJj9HkUXVsREAR5oesCX2Ug-A,Liberty Bank,41.8115439,44.8464749
ChIJd-vXZM9yREARGZM1wTsbQ-E,Liberty Bank,41.727265,44.78776300000001
ChIJ-QSlN8FyREARltzqJTnH3XY,Liberty Bank,41.7322526,44.7846927
ChIJVVT7NcFyREARiwf4SP14xG0,Bank of Georgia,41.7321728,44.7847471
ChIJkcB_dPQMRUARfTCEi6Ej9bw,TBC Bank,41.735991,44.7828603
ChIJawdsIMByREAR5hNFckNKFo8,Basisbank,41.73618700000001,44.78219
ChIJke2snYMvW0AR3BGkJdphm5I,TBC Bank Branch,41.7321241,44.7977855
ChIJNbmcOcFyREAR7pxc0xPR9_g,Terabank,41.7323988,44.7845945
ChIJ63LwHsFyREAR2TQ_mZlckbc,Creditor,41.7331659,44.7847138
ChIJmfQvIsoNREARD8scGa2HWQo,ექსპრეს კრედიტი (დიდუბის ფილიალი),41.735706,44.783145
ChIJyVYvGcByREAR68MggOhgj5I,SOLO,41.735746,44.78299699999999
ChIJeZ2U9slyREARpgpOW1NWUNg,Rico Credit,41.728218,44.798883
ChIJueYdu81yREAR4yHblTLdVdM,Bank of Georgia/,41.72333200000001,44.792992
ChIJWeaOm81yREAR5QyIIkftqWU,Bermeli Bank,41.7223988,44.79247480000001
ChIJ7xcvwpRyREARtBsg6-hGgpA,Procredit Bank,41.7389195,44.78114409999999
ChIJZZd199pyREAR488RPFBQw8s,ცენტრალი - მიკროსაფინანსო ორგანიზაცია,41.725475,44.779343
ChIJS7lULjMNREARBaekO5w0GuY,TBC Bank,41.7217973,44.7983787
ChIJacqd-JdyREAROze66EoCmR8,Liberty Bank,41.743213,44.793701
ChIJzWcZLC0NREARIGiNi88urNA,თიბისი ბანკი,41.7191331,44.7926703
ChIJb-J-KC0NREARKcaSohdbWSg,Rico Credit,41.718854,44.792886
ChIJkQ953dtyREAReimKSNYFwT4,Bank Of Georgia,41.7231776,44.77675479999999
ChIJye5r79lyREAR7v1oOYBauhY,Basisbank,41.723,44.77677539999999
ChIJJUOL6fpzREARlhxrG7TCWAg,Bank of Georgia,41.7272463,44.78800179999999
ChIJw1vgADtzREAR3W3AB77U-yw,Bank of Georgia,41.7326,44.797005
ChIJ9W5er9FzREAR2bsBNSiDL08,ბაზისბანკი | Basisbank,41.73368059999999,44.7844178
ChIJMzS95wpzREARBR9WMj1pN74,Credo Bank / კრედო ბანკი,41.7314945,44.79762729999999
ChIJ-eYIZHFzREARx1dTr8fFAGg,Bank of Georgia,41.731425,44.797937
ChIJg_i40rdyREAR6PHtZ3tL71k,Liberty Bank,41.7303085,44.7977708
ChIJU8GHzsNzREAREHhmBRag4eg,ბაზისბანკი | Basisbank,41.7311442,44.79795490000001
ChIJ-fkhqs9zREARswrqaEQ9yBQ,ბაზისბანკი | Basisbank,41.7310333,44.79804
ChIJI2Sl-c5yREARWQhkV9-Mtmk,TBC Bank,41.7256329,44.7901263
ChIJtdx8XNRzREAR0Xg_sqZhg9o,Paysera Bank Georgia,41.7248052,44.7899813
ChIJCzu9sR1zREARGsC8zEmYe8A,Bank of Georgia,41.73575,44.783004
ChIJ86ej-ClzREAR_rHhgdYyHcg,სილქ როუდ ბანკი,41.7361635,44.7827277
ChIJtZsjoOpyREAR6BQRVw2573E,Liberty Bank Car Leasing,41.7359067,44.7823442
ChIJy6FLVDtzREARGMYCeM1zxo8,ხალიკ ბანკი,41.7363744,44.78261500000001
ChIJFWVLJB9zREARdP1FHukyFh4,Creditservice+ • კრედიტსერვისი+,41.7230032,44.79311990000001
ChIJC0v1YqpzREARj7C7H0T331Q,Rico Credit,41.73753859999999,44.78133769999999
ChIJ4XgYn91zREARSu5IP0tBqFA,კრისტალი ფინანსური ჩართულობის ორგანიზაცია - Crystal Financial Inclusion Organization,41.7223893,44.7933194
ChIJ4cECVThzREARFjd_MbyO9sM,Bank of Georgia,41.722518,44.795832
ChIJA2xJ5NdzREARsgxO0RsuQAc,Creditservice+ • კრედიტსერვისი+,41.72257439999999,44.7974392
ChIJW8bo1sxyREARaefp5XEQFL4,Liberty Bank,41.7220019,44.797142
ChIJ5WSVUTsNREARYuu77UKen9A,Bank of Georgia,41.7214965,44.7976536
ChIJsdh7hSwNREARHoPaoBC-Urk,Liberty Bank,41.7198281,44.7932572
ChIJ162kp3hzREAR8Iqnlian3Lw,Bank of Georgia,41.742635,44.78457
ChIJA9SzNdRzREARKL0nVzwIcD0,TBC Bank ATM,41.7434112,44.7936162
ChIJSVGpCkcNREARu4tPe1PFSWo,Creditservice+ • კრედიტსერვისი+,41.721547,44.7993654
ChIJMSrPRDlzREARIkRTl7CGG14,Bank of Georgia,41.7412602,44.7798577
ChIJe52rdCdzREAR_94G888rzWw,Bank of Georgia,41.71976100000001,44.7827503
ChIJiU2yxIMNREARyZG-2zYzFfk,Creditservice+ • კრედიტსერვისი+,41.7197864,44.7985762
ChIJn8bEMzQNW0AR5kVoEsqbnsM,TBC Bank Branch,41.725702,44.7629705
ChIJXV_2LSBzREARkEcP_ZR3e9o,Easycred Georgia,41.7241866,44.76044919999999
ChIJww_bwR9zREARy39XqOIvzTY,კრისტალი ფინანსური ჩართულობის ორგანიზაცია - Crystal Financial Inclusion Organization,41.7252259,44.7551199
ChIJEwG9Xd5yREARk32NXsfjFUU,"ProCredit Bank, Georgia",41.7258751,44.7584159
ChIJZ85E9BpzREARhEP_jZZ9bQM,Liberty Bank,41.7256171,44.749417
ChIJv-rknxpzREARan1S7rj_zdg,Basisbank,41.7273958,44.76193749999999
ChIJUWttYhlzREARMAX7F2NPLf4,MegaCrediti,41.7247751,44.7496638
ChIJqSiA5dU_W0ARw-v1tfj7HsQ,TBC Bank,41.7275566,44.7645731
ChIJUdsrQBpzREARNE9xt0jTQlw,Rico Credit,41.7244004,44.7458483
ChIJj3BOARpzREAR0MG8T3AKpvQ,Credo Bank / კრედო ბანკი,41.72282219999999,44.74607
ChIJ62CXXPcOW0AR9TT__rAdpMY,TBC Bank Branch,41.7253167,44.7413742
ChIJS0b1y-5yREARin5pHkOCyNI,Bank of Georgia,41.73586,44.7708772
ChIJHWU0mt5yREARrP7splBwAMU,Rico Credit,41.7262456,44.7708106
ChIJo183LwBzREARgx2wBQhltEw,Bank of Georgia Payment Machine,41.7283523,44.75848920000001
ChIJL-fwHQBzREARUrTPAFBHxIo,TBC Bank ATM,41.727681,44.75909369999999
ChIJecrNmv1zREARFEJBdc7M5mM,Bank of Georgia,41.725388,44.755978
ChIJWaqfemdzREARcTLKTQ8wTcM,SOLO,41.725388,44.755978
ChIJe3tTzYpzREARbr-gUd2MIiE,Creditservice+ • კრედიტსერვისი+,41.72594769999999,44.7608932
ChIJl_zjbfNzREARxHmOK178zYU,Bank of Georgia ATM,41.7282658,44.7637064
ChIJu0ufqxtzREARiH3RlTwxA1k,Bank of Georgia,41.72557159999999,44.7477312
ChIJT9BVgC9zREARCbsYPW_VXh0,Bank of Georgia,41.7261949,44.762882
ChIJzWQV20RzREARGapdu17LSv8,Liberty,41.7293354,44.765474
ChIJJSiWJBpzREARc8InF_gAds8,SOLO,41.7241986,44.7476534
ChIJvaABFeRzREARP0V7znc1cwo,Bank of Georgia,41.727516,44.76504699999999
ChIJvxgtZlpzREAR2xFjjjbKxd0,Bank of Georgia,41.731243,44.76726800000001
ChIJ_Ry6msNzREARSxfz-NBLwmw,Bank of Georgia,41.7236046,44.7469439
ChIJi2LrmMFzREARPaG2Ht9vluQ,ბაზისბანკი | Basisbank,41.72494760000001,44.74227519999999
ChIJ8WZPnOdyREARS3gN5_aSRJk,Halyk Bank,41.73033519999999,44.76970679999999
ChIJec621MNzREARjyV3eJUk2Z4,Creditservice+ • კრედიტსერვისი+,41.72696269999999,44.7691149
ChIJM0y__N5yREARPJKWG0hYFe4,GFS Group,41.7255598,44.768473
ChIJt2YRz-5yREARTvYRe-J0IY8,Bank of Georgia Group PLC,41.7358695,44.7705866
ChIJo46NmdgMREARfo9ZPwGQUmA,Liberty Bank,41.70755099999999,44.79786300000001
ChIJ41j9M8tuW0AR55kiua8kHIA,TBC Bank Head Office,41.7085116,44.7950591
ChIJ2XG_o9sMREAR1_hZ-gd6aEo,BTA Bank,41.70377209999999,44.7906548
ChIJFdHl9RxzREAR0T11-g1_DIo,Credo Bank / კრედო ბანკი,41.70173259999999,44.7970769
ChIJY_W_hf9fW0AR6cuIO3NXjz4,TBC Bank,41.7025796,44.7928061
ChIJIzzdy1w3W0AR488ff0v0_Q4,TBC Bank,41.7089194,44.78111029999999
ChIJcer7jNwMREARY-Dx3_PpBM4,EBRD Regional Office in Georgia,41.702147,44.7926425
ChIJJb2dm9AMREARX37oFAeJdyE,Basisbank,41.70627210000001,44.78707
ChIJ9bXtb9cMREARVM8GSyoaB4s,Ziraat Bank,41.70902749999999,44.78996830000001
ChIJVfIDONEMREARhu2YFRkXyZo,ექსპრეს კრედიტი (სათავო ოფისი),41.708645,44.784584
ChIJeUFu6OcMREARnlGJHDDWwGk,CTBANKERS,41.698715,44.796716
ChIJ45vcATNzREARKKrLoeON5ug,Silk Bank,41.7028127,44.8042585
ChIJg1Ko5isNREARbMNlhjcgrws,Basisbank branch & ATM,41.71473900000001,44.79332239999999
ChIJNa4P89IMREARCJm3JvXDwiw,Rico Credit,41.7092625,44.7768512
ChIJBwMLeSwNREAREnbAgTIdUl4,Terabank,41.7158794,44.7925003
ChIJ8YEbJeQMREARW2oXoQxn3V4,Bank of Georgia,41.696725,44.803748
ChIJr1LtoeRiW0ARFccopO1MpuI,TBC Bank Service Centre,41.6991451,44.79795050000001
ChIJ_zBnh-UMREARyzQiuX3vGKQ,Rico Credit ATM,41.695346,44.802594
ChIJU-ZEDdsMREARJBo4BUfMUTg,Exchange PLN,41.703429,44.7899126
ChIJ-zhwOeINREARdw9oxubItbQ,Bank of Georgia,41.70386699999999,44.79324199999999
ChIJo5EJ3WQNREARVNxGyuqh7eI,Rico Credit,41.702741,44.79386599999999
ChIJI5Ki6NsNREARASziAlytFvc,Rico Credit,41.70618319999999,44.7864946
ChIJYxvikNAMREARcMhPztrnxXQ,Liberty Bank,41.7064404,44.7866745
ChIJOfWq2WENREAR_tGAXI8CSU8,Terabank,41.7027478,44.79456769999999
ChIJaR-NcxUNREARnAB7sZ6dvHA,Terabank,41.7071875,44.7848125
ChIJt5XF6aENREAR0dwZ57Fh9Ks,თიბისი ბანკი,41.7084833,44.7950453
ChIJvwYHb9cNREAR_YPtvDhMAnw,Terabank,41.7053673,44.7833121
ChIJEZtMRLINREARsFt2w-_o_zo,Bank of Georgia,41.70732650000001,44.78415640000001
ChIJ_8S_H-gMREAR52XtSAx7q5s,დვალი აუდიტორი,41.6991021,44.79265340000001
ChIJWW6-kxQNREARK7CPIVt530M,Bank of Georgia,41.70947750000001,44.79732080000001
ChIJXya6Zk8NREARv-gic-8FSfU,Credo Bank / კრედო ბანკი,41.70912689999999,44.79796989999999
ChIJhfXLaQANREAR_sS2-5ad9kY,TBC Bank,41.7069435,44.7998639
ChIJKd9nDuYNREARX-CRhiFzUlc,Mjc credit,41.7100618,44.7972186
ChIJw6Va6n0NREARcob4vuTgyXE,Credo Bank Expat Branch,41.705739,44.8004329
ChIJxZMmwecMREARP0PiqLwFYwM,Exchange Nuki,41.6987408,44.7975495
ChIJ7VMxSOcMREARa5-AukETXiE,Tera Bank,41.7007725,44.8008795
ChIJz-SYl98MREARyhgeH62_t2s,Silk Road Bank,41.70471730000001,44.8023685
ChIJbTwpLnwNREARztvnYQXiNqo,ბაზისბანკი | Basisbank,41.708784,44.77981699999999
ChIJzfisPekMREARQlbbwczFaPo,IOS Partners,41.69487830000001,44.79474279999999
ChIJNQtNYOkMREARQhG2j35RuPo,სოლო ლაუნჯი SOLO Lounge,41.6944614,44.7934659
ChIJN3VIGJENREARDoMUDBJGc8Y,SOLO,41.69445999999999,44.7934672
ChIJn8Ai81kNREARk-kdMA4TR64,Bank of Georgia,41.69445999999999,44.7934672
ChIJV2m05CsNREARrq_PZjDdQ8s,Bank of Georgia,41.714839,44.793679
ChIJuUP0gAMNREARLrgOL1cQF2E,ვალუტის გაცვლა EXCHANGE SERVICE,41.7030281,44.8051857
ChIJ1U--Jo4NREARyCRtPeuQHbE,PASHA Bank Branch,41.7023303,44.80519820000001
ChIJg_J8BR4NREAR1vRnY1C8_jk,Credo Bank / კრედო ბანკი,41.7105575,44.8033929
ChIJVUaCCgANREAR7GPsx_qbrM4,TBC ATM,41.7107107,44.8037223
ChIJ3TwPICQNREARB_V7-f2_9WY,Liberty Bank,41.710429,44.80412899999999
ChIJBcRbvDcNREARb14Le9Hzjwo,Credo Bank Expat Branch,41.7090544,44.7754636
ChIJOym7_LkNREARE63PTGv_-w8,Bank of Georgia,41.694671,44.800175
ChIJv-s4Qs0MREARti7kvPuxPyY,Bank of Georgia,41.709359,44.774974
ChIJC_7Z41YNREARYnyTXEH9JJY,Bank of Georgia,41.6950562,44.8015639
ChIJB3H3bM0MREAR-Zp12UO_DVY,SOLO,41.70809899999999,44.77371499999999
ChIJuT3X8woNREAR4SjbQj6ZL_Q,Bank of Georgia,41.70809899999999,44.77371300000001
ChIJfx16V9kNREARKLOlQP9vRoU,Bank of Georgia,41.699056,44.80633900000001
ChIJY7JZ9-MMREARrd0FRXqQmLk,TBC Bank,41.6987956,44.8065295
ChIJdbYkZjdzREARj7GzLxWQ5Ko,Rico Credit ATM,41.7112122,44.7558822
ChIJP2Vz-ThzREAR3tu54W1AZ14,Terabank,41.7120979,44.7509614
ChIJa3gCPDZzREAR3q8G0ob5DCw,SOLO,41.708431,44.756125
ChIJMYeHqDZzREARXXMCrh5uJzw,JSC MFO Alpha-Express,41.7093771,44.76147690000001
ChIJV5UEl-cMREARy-2ztLEji2U,PASHA BANK GEORGIA JSC,41.711749,44.7558131
ChIJz-skdTRzREARmfrOa3gMY90,CityLeasing,41.7088528,44.76356599999999
ChIJ-QgwBzlzREARjBQp9u0wijc,Basisbank,41.7127296,44.7517593
ChIJV8t31zlzREARjh8QIfUKj3g,Liberty Bank Headquarters,41.7113805,44.7544062
ChIJATPJ6zJzREARcL0XxykbvJk,Basisbank,41.7098371,44.7697363
ChIJW4IojlBzREARr3E6_B5dWXg,Bank of Georgia,41.708228,44.75615999999999
ChIJSZcEaDZzREARJJNZYRxm_Ik,Liberty Bank,41.7085868,44.7575581
ChIJ60U9XflzREAR2JJMJOEB8gg,Isbank,41.7112675,44.75508
ChIJ5SxNrS5zREARUsWKEaOJ_aw,ATM Bank of Georgia,41.7091346,44.7611825
ChIJc4MD-b5zREARcrflV1h3UMQ,Bank of Georgia,41.710494,44.75926
ChIJ8TjquORzREAR8Qdbrl9Dzec,Bank of Georgia Service Center,41.710552,44.75941359999999
ChIJDQpvBNtzREARyZQanHZRyp8,ხალიკ ბანკი / Halyk Bbank,41.710481,44.7600406
ChIJ2zr_rzlzREARvfpSSKWk1Xk,JSC Cartu Bank,41.712276,44.752792
ChIJFY5lRDFzREARhvzgfUiMdi0,TBC Bank,41.710566,44.762163
ChIJO7_CxJdzREAReySYGcFcX9Q,Space - სფეისი,41.7118302,44.7478385
ChIJa5vMyLdzREARXGRGjJHbiaw,Bank of Georgia,41.71018499999999,44.765846
ChIJhV-GyTNzREARR4uZ-2FkhK4,SOLO,41.71018499999999,44.765846
ChIJJYSEed0NREARV8x76ySLNWU,Liberty Bank ATM,41.7139357,44.7600529
ChIJTVnDRDNzREARVn9iCPlXHc4,TBC Bank,41.7077037,44.7674521
ChIJv1cHTjNzREARvkXgM-3QWn4,Cartu Bank,41.70741760000001,44.7678444
ChIJj1z0NTNzREARZnTw-phmwkk,Liberty Bank,41.70827690000001,44.7689241
ChIJVVXFVzJzREAR-vIKmAsqFOo,ონლაინ სესხი,41.70992409999999,44.7681945
ChIJ1_-9CGpzREARocWoYjMCk7E,Bank of Georgia,41.705215,44.738131
ChIJHyT6CAtzREARtKOch7I8NWA,Terabank,41.71359950000001,44.74300540000001
